LineNo,TimeUS,Status,GMS,GWk,NSats,HDop,Lat,Lng,Alt,Spd,GCrs,VZ,U
1799,2582679568,4,465947000,1949,9,1.01,47.4985604,19.1990311,145.07,0.1360147,287.1027,-0.05,1
1861,2582879403,4,465947200,1949,9,1.01,47.4985604,19.1990307,145.06,0.1360147,287.1027,0.01,1
1921,2583079386,4,465947400,1949,9,1.01,47.4985604,19.1990306,145.06,0.04242641,135,0,1
1982,2583279452,4,465947600,1949,9,1.01,47.4985605,19.1990307,145.04,0.1208305,24.44395,0.05,1
2044,2583479356,4,465947800,1949,9,1.01,47.4985605,19.1990308,145.02,0.1104536,174.8056,0.03,1
2104,2583679562,4,465948000,1949,9,1.01,47.4985604,19.1990308,145.01,0.02236068,243.435,0.07,1
2164,2583879447,4,465948200,1949,9,1.01,47.4985604,19.1990308,144.99,0.02236068,296.5651,0.02,1
2226,2584079343,4,465948400,1949,9,1.01,47.4985605,19.1990307,144.99,0.06324555,341.5651,-0.07,1
2287,2584279577,4,465948600,1949,9,1.01,47.4985606,19.1990307,144.97,0.1910497,353.991,0.09,1
2349,2584479347,4,465948800,1949,9,1.01,47.4985608,19.1990306,144.96,0.07211103,326.3099,0.11,1
2410,2584679408,4,465949000,1949,9,1.01,47.4985608,19.1990306,145,0.1063015,138.8141,-0.06,1
2470,2584879546,4,465949200,1949,9,1.01,9999,19.1990306,144.99,0.05099019,281.3099,0.05,1
2532,2585079441,4,465949400,1949,9,1.01,47.4985606,19.1990306,145,0.08,0,-0.06,1
2592,2585279386,4,465949600,1949,9,1.01,47.4985607,19.1990306,145.04,0.1004988,354.2894,-0.15,1
2654,2585479410,4,465949800,1949,9,1.01,47.4985607,19.1990308,145.03,0.08,90,-0.04,1
2714,2585679429,4,465950000,1949,9,1.01,47.4985606,19.199031,145.01,0.07810249,129.8056,0.03,1
2774,2585879347,4,465950200,1949,9,1.01,47.4985605,19.1990311,144.99,0.04123105,14.03624,0.08,1
2834,2586079519,4,465950400,1949,9,1.01,47.4985606,19.199031,145.02,0.1104536,275.1944,0,1
2896,2586279453,4,465950600,1949,9,1.01,47.4985605,19.199031,145.02,0.04123105,194.0363,0.04,1
2959,2586479379,4,465950800,1949,9,1.01,47.4985605,19.199031,145.06,0.02236068,26.56505,0.01,1
3019,2586679499,4,465951000,1949,9,1.01,47.4985604,19.1990311,145.05,0.1360147,162.8973,0.17,1
3079,2586879500,4,465951200,1949,9,1.01,47.4985604,19.1990311,145.06,0.04472136,333.4349,-0.01,1
3139,2587079427,4,465951400,1949,9,1.01,47.4985604,19.1990312,145.1,0.07071067,98.1301,0.02,1
3199,2587279549,4,465951600,1949,9,1.01,47.4985603,19.1990314,145.07,0.15,143.1301,0.08,1
3263,2587479443,4,465951800,1949,9,1.01,47.49856,19.1990317,145.01,0.1486607,160.3462,0.2,1
3323,2587679377,4,465952000,1949,9,1.01,47.4985599,19.1990317,144.99,0.04,180,0.05,1
3383,2587879510,4,465952200,1949,9,1.01,47.49856,19.1990315,145.03,0.2059126,330.9454,0.02,1
3445,2588079535,4,465952400,1949,9,1.01,47.4985601,19.1990313,144.99,0.05830951,239.0363,0.13,1
3506,2588279605,4,465952600,1949,9,1.01,47.4985599,19.1990313,144.96,0.09219544,139.3987,-0.07,1
3568,2588479760,4,465952800,1949,9,1.01,47.4985597,19.1990316,144.95,0.2051828,133.0251,0.14,1
3628,2588679561,4,465953000,1949,9,1.01,47.4985596,19.1990317,144.95,0.03,0,-0.05,1
3690,2588879574,4,465953200,1949,9,1.01,47.4985595,19.1990318,144.94,0.09999999,180,0.06,1
3750,2589079632,4,465953400,1949,9,1.01,47.4985595,19.1990317,144.96,0.04472136,333.4349,-0.01,1
3787,2646079439,4,466010400,1949,9,1,47.4985598,19.1990302,145.53,0.1081665,123.6901,-0.03,1
3849,2646279412,4,466010600,1949,9,1,47.4985596,19.1990304,145.45,0.1220656,214.992,0.14,1
3912,2646479502,4,466010800,1949,9,1,47.4985593,19.1990305,145.38,0.09219544,167.4712,0.08,1
3972,2646679442,4,466011000,1949,9,1,47.4985591,19.1990309,145.34,0.1627882,100.6197,-0.14,1
4032,2646879539,3,466011200,1949,9,1,47.498559,19.1990312,145.36,0.02,270,-0.02,1
4092,2647079702,3,466011400,1949,9,1,47.4985589,19.1990313,145.35,0.116619,149.0362,0.04,1
4152,2647279381,3,466011600,1949,9,1,47.4985588,19.1990315,145.34,0.05656854,45,-0.09999999,1
4216,2647479353,3,466011800,1949,9,1,47.4985587,19.1990316,145.35,0.07071067,188.1301,0.05,1
4276,2647679388,3,466012000,1949,9,1,47.4985585,19.1990317,145.34,0.150333,176.1859,0.01,1
4336,2647879526,3,466012200,1949,9,1,47.4985584,19.1990318,145.37,0.05656854,135,0.02,1
4399,2648079466,3,466012400,1949,9,1,47.4985583,19.1990319,145.33,0.04472136,296.5651,-0.01,1
4460,2648279546,3,466012600,1949,9,1,47.4985582,19.1990319,145.33,0.1414213,171.8699,0.02,1
4522,2648479424,3,466012800,1949,9,1,47.4985581,19.1990319,145.41,0.09848858,156.0375,-0.01,1
4582,2648679524,3,466013000,1949,9,1,47.4985579,19.1990321,145.36,0.05385165,111.8014,0.09,1
4644,2648879472,3,466013200,1949,9,1,47.4985578,19.1990323,145.33,0.06708204,116.565,0.06,1
4704,2649079337,3,466013400,1949,9,1,47.4985577,19.1990324,145.3,0.01414214,135,0.04,1
4765,2649279511,3,466013600,1949,9,1,47.4985577,19.1990325,145.31,0.1140175,74.74487,-0.04,1
4827,2649479423,3,466013800,1949,9,1,47.4985579,19.1990324,145.34,0.15,306.8699,-0.09999999,1
4891,2649699483,3,466014000,1949,9,1,47.4985579,19.1990322,145.3,0.04242641,315,0.08,1
4949,2649879477,3,466014200,1949,9,1,47.4985581,19.1990322,145.44,0.12,90,-0.03,1
5010,2650079382,3,466014400,1949,9,1,47.4985581,19.1990323,145.46,0.06082762,260.5377,-0.08,1
5070,2650279571,3,466014600,1949,9,1,47.4985582,19.199032,145.5,0.1081665,303.6901,-0.06,1
5134,2650479341,3,466014800,1949,9,1,47.4985583,19.1990319,145.52,0.02236068,243.435,-0.14,1
5194,2650679443,3,466015000,1949,9,1,47.4985583,19.1990318,145.52,0.1029563,299.0546,-0.09999999,1
5254,2650879312,3,466015200,1949,9,1,47.4985586,19.1990315,145.57,0.1280625,321.3402,-0.22,1
5314,2651079511,3,466015400,1949,9,1,47.4985587,19.1990314,145.6,0.04,0,-0.12,1
5374,2651279528,3,466015600,1949,9,1,47.4985586,19.1990313,145.57,0.1118034,259.6952,0,1
5436,2651479373,3,466015800,1949,9,1,47.4985586,19.1990311,145.55,0.07615773,293.1986,-0.09,1
5496,2651679449,3,466016000,1949,9,1,47.4985588,19.1990309,145.55,0.1555635,315,0.17,1
5556,2651879584,3,466016200,1949,9,1,47.4985589,19.1990307,145.54,0.08944272,243.435,0.04,1
5616,2652079430,3,466016400,1949,9,1,47.4985589,19.1990306,145.53,0.0728011,15.94539,-0.04,1
5678,2652279604,3,466016600,1949,9,1,47.4985588,19.1990307,145.5,0.1529706,191.3099,0.11,1
5740,2652479467,3,466016800,1949,9,1,47.4985588,19.1990307,145.48,0.04,0,0.04,1
5800,2652679532,3,466017000,1949,9,1,47.4985587,19.1990309,145.44,0.1345362,138.0128,0.01,1
5860,2652879549,3,466017200,1949,9,1,47.4985587,19.1990311,145.45,0.05656854,45,-0.07,1
5920,2653079550,3,466017400,1949,9,1,47.4985587,19.1990311,145.48,0.03605551,303.6901,-0.12,1
5981,2653279601,3,466017600,1949,9,1,47.4985588,19.1990312,145.48,0.04242641,45,0.02,1
6043,2653479354,3,466017800,1949,9,1,47.498559,19.1990312,145.49,0.1140175,344.7449,-0.06,1
6103,2653679510,3,466018000,1949,9,1,47.498559,19.1990313,145.49,0.03,90,0,1
6165,2653879432,3,466018200,1949,9,1,47.498559,19.1990313,145.46,0.1131371,225,0.19,1
6225,2654079582,3,466018400,1949,9,1,47.4985589,19.1990314,145.43,0.1004988,84.2894,0.06,1
6287,2654279568,3,466018600,1949,9,1,47.4985589,19.1990316,145.41,0.02828427,225,0.07,1
6349,2654479530,3,466018800,1949,9,1,47.498559,19.1990315,145.46,0.05830951,329.0363,0.03,1
6409,2654679660,3,466019000,1949,9,1,47.4985591,19.1990315,145.44,0.01414214,315,0.05,1
6469,2654879746,3,466019200,1949,9,1,47.4985592,19.1990315,145.43,0.04472136,26.56505,0.06,1
6531,2655079467,3,466019400,1949,9,1,47.4985592,19.1990316,145.44,0.07615773,113.1986,-0.02,1
6591,2655279663,3,466019600,1949,9,1,47.4985593,19.1990321,145.4,0.2830194,57.99461,-0.09999999,1
6653,2655479840,3,466019800,1949,9,1,47.4985596,19.1990325,145.42,0.1802776,19.44003,-0.15,1
6715,2655699627,3,466020000,1949,9,1,47.49856,19.199033,145.52,0.4280187,52.59464,-0.58,1
6773,2655879680,3,466020200,1949,9,1,47.4985611,19.1990341,145.73,1.077868,25.85186,-1.31,1
6835,2656079640,3,466020400,1949,9,1,47.4985628,19.1990352,146.04,0.9352005,24.64677,-1.4,1
6895,2656279671,3,466020600,1949,9,1,47.4985645,19.1990363,146.33,1.082266,26.32829,-1.49,1
6958,2656479595,3,466020800,1949,9,1,47.4985663,19.1990378,146.63,1.231665,29.68718,-1.43,1
7018,2656680055,3,466021000,1949,9,1,47.4985682,19.1990397,146.76,1.404706,28.0245,-1.23,1
7078,2656879705,3,466021200,1949,9,1,47.4985704,19.1990414,147.03,1.291395,30.73549,-1.16,1
7140,2657079866,3,466021400,1949,9,1,47.4985724,19.1990431,147.22,1.247758,26.15434,-0.95,1
7200,2657279469,3,466021600,1949,9,1,47.4985746,19.1990445,147.46,1.401178,24.00401,-0.9,1
7262,2657479679,3,466021800,1949,9,1,47.4985767,19.1990459,147.68,1.18596,28.72613,-0.75,1
7322,2657679614,3,466022000,1949,9,1,47.4985789,19.1990473,147.78,1.3544,16.29405,-0.52,1
7384,2657880075,3,466022200,1949,9,1,47.4985812,19.1990485,147.88,1.329135,24.44395,-0.33,1
7444,2658079742,3,466022400,1949,9,1,47.4985833,19.1990498,147.9,1.192183,18.58692,0.16,1
7505,2658279685,3,466022600,1949,9,1,47.4985852,19.1990506,147.92,1.028834,15.7924,0.11,1
7569,2658479695,3,466022800,1949,9,1,47.4985869,19.1990517,147.89,1.042161,25.58153,0.19,1
7629,2658679539,3,466023000,1949,9,1,47.4985883,19.1990528,147.83,0.7256032,29.74488,0.32,1
7689,2658879692,3,466023200,1949,9,1,47.4985896,19.1990538,147.76,0.8430895,22.3062,0.21,1
7749,2659079863,3,466023400,1949,9,1,47.4985906,19.1990547,147.72,0.4534314,41.42366,0.3,1
7810,2659279518,3,466023600,1949,9,1,47.4985909,19.1990556,147.7,0.3395585,76.373,0.12,1
7872,2659480140,3,466023800,1949,9,1,47.4985909,19.1990563,147.7,0.2147091,117.7585,0.23,1
7932,2659679617,3,466024000,1949,9,1,47.4985908,19.1990569,147.68,0.2683282,116.565,0.16,1
7994,2659879495,3,466024200,1949,9,1,47.4985906,19.1990577,147.74,0.3605551,109.44,0.01,1
8056,2660099376,3,466024400,1949,9,1,47.4985903,19.1990588,147.72,0.4205948,118.393,0.12,1
8114,2660279544,3,466024600,1949,9,1,47.4985902,19.1990599,147.71,0.4104875,87.20729,0.06,1
8180,2660479657,3,466024800,1949,9,1,47.4985904,19.1990611,147.65,0.4404543,50.52754,0.11,1
8242,2660679820,3,466025000,1949,9,1,47.4985909,19.1990623,147.68,0.5220153,69.82935,0.15,1
8304,2660879664,3,466025200,1949,9,1,47.4985914,19.1990638,147.66,0.7211102,56.30993,0.23,1
8366,2661079645,3,466025400,1949,9,1,47.4985921,19.1990655,147.67,0.6664082,64.20396,0.29,1
8428,2661279770,3,466025600,1949,9,1,47.4985929,19.1990675,147.64,1.040192,52.02839,0.15,1
8494,2661479598,3,466025800,1949,9,1,47.4985939,19.1990696,147.61,0.9404786,54.95807,0.23,1
8556,2661679718,3,466026000,1949,9,1,47.4985948,19.1990717,147.52,0.8508819,60.42216,0.41,1
8618,2661879701,3,466026200,1949,9,1,47.4985955,19.1990735,147.47,0.7580237,53.58362,0.27,1
8680,2662079518,3,466026400,1949,9,1,47.4985959,19.1990748,147.41,0.3705401,86.90594,0.42,1
8742,2662279608,3,466026600,1949,9,1,47.4985961,19.1990758,147.31,0.4022437,55.12467,0.18,1
8806,2662479636,3,466026800,1949,9,1,47.4985966,19.1990767,147.35,0.532635,39.66784,-0.16,1
8868,2662679708,3,466027000,1949,9,1,47.498597,19.1990772,147.36,0.0728011,15.94539,-0.26,1
8930,2662879720,3,466027200,1949,9,1,47.4985969,19.1990771,147.67,0.2325941,154.5367,-0.78,1
8994,2663079601,3,466027400,1949,9,1,47.4985967,19.199077,147.75,0.2325941,295.4633,-0.73,1
9057,2663279873,3,466027600,1949,9,1,47.4985968,19.1990766,147.83,0.2163331,303.6901,-0.69,1
9121,2663479695,3,466027800,1949,9,1,47.4985969,19.1990762,147.84,0.1529706,281.3099,-0.39,1
9185,2663679664,3,466028000,1949,9,1,47.498597,19.199076,147.87,0.1208305,335.5561,-0.29,1
9247,2663879653,3,466028200,1949,9,1,47.4985968,19.199076,147.88,0.2202272,182.6026,-0.23,1
9311,2664079720,3,466028400,1949,9,1,47.4985964,19.199076,147.89,0.1581139,198.435,-0.11,1
9374,2664279643,3,466028600,1949,9,1,47.4985958,19.199076,147.97,0.4148493,164.6237,-0.38,1
9438,2664479941,3,466028800,1949,9,1,47.4985952,19.1990763,148.02,0.2334523,170.1342,-0.36,1
9500,2664679527,3,466029000,1949,9,1,47.4985947,19.1990765,148.07,0.2435159,160.821,-0.47,1
9564,2664879879,3,466029200,1949,9,1,47.4985942,19.1990764,148.18,0.2983287,193.5704,-0.58,1
9626,2665079728,3,466029400,1949,9,1,47.4985937,19.1990765,148.34,0.2594224,152.4472,-0.79,1
9688,2665279681,3,466029600,1949,9,1,47.4985935,19.1990766,148.43,0.05385165,248.1986,-0.6,1
9752,2665479743,3,466029800,1949,9,1,47.4985935,19.1990765,148.47,0.06,0,-0.39,1
9814,2665679501,3,466030000,1949,9,1,47.4985934,19.1990764,148.47,0.1360147,233.9726,-0.05,1
9878,2665879616,3,466030200,1949,9,1,47.4985934,19.1990761,148.45,0.1077033,291.8014,0.15,1
9940,2666079691,3,466030400,1949,9,1,47.4985935,19.1990755,148.48,0.2137756,280.7843,0.14,1
10002,2666280014,3,466030600,1949,9,1,47.4985936,19.1990749,148.44,0.2376973,292.249,0.09,1
10067,2666479470,3,466030800,1949,9,1,47.4985937,19.1990745,148.45,0.07810249,309.8056,-0.09999999,1
10129,2666679534,3,466031000,1949,9,1,47.4985939,19.1990739,148.5,0.3301515,305.1342,-0.09999999,1
10191,2666879633,3,466031200,1949,9,1,47.4985943,19.1990732,148.49,0.3721559,300.6997,-0.12,1
10255,2667079689,3,466031400,1949,9,1,47.4985946,19.1990724,148.51,0.3764306,309.6107,-0.17,1
10317,2667279571,3,466031600,1949,9,1,47.4985949,19.1990717,148.53,0.2418677,299.7449,-0.14,1
10381,2667479646,3,466031800,1949,9,1,47.498595,19.1990712,148.54,0.14,270,0.06,1
10445,2667699374,3,466032000,1949,9,1,47.4985951,19.199071,148.51,0.15,323.1301,-0.07,1
10507,2667879709,3,466032200,1949,9,1,47.4985954,19.1990709,148.51,0.1702939,356.6335,0.07,1
10569,2668079871,3,466032400,1949,9,1,47.4985956,19.199071,148.49,0.1,36.8699,0.03,1
10632,2668279553,3,466032600,1949,9,1,47.4985956,19.1990711,148.42,0.02236068,26.56505,-0.03,1
10696,2668479633,3,466032800,1949,9,1,47.4985953,19.1990713,148.38,0.2416609,155.556,0.07,1
10758,2668680099,3,466033000,1949,9,1,47.4985949,19.1990716,148.36,0.1838478,157.6199,0.05,1
10821,2668879797,3,466033200,1949,9,1,47.4985945,19.1990715,148.38,0.2789265,194.5345,0.05,1
10884,2669079627,3,466033400,1949,9,1,47.4985941,19.1990714,148.36,0.13,202.6199,-0.03,1
10947,2669279497,3,466033600,1949,9,1,47.4985938,19.1990714,148.33,0.2088061,196.6992,-0.07,1
11011,2669479716,3,466033800,1949,9,1,47.4985934,19.1990711,148.33,0.2483948,220.1009,-0.06,1
11075,2669679529,3,466034000,1949,9,1,47.4985932,19.1990706,148.38,0.2408319,274.7636,-0.09,1
11137,2669879787,3,466034200,1949,9,1,47.498593,19.1990701,148.41,0.2906888,220.8151,-0.09999999,1
11199,2670079837,3,466034400,1949,9,1,47.4985926,19.1990695,148.49,0.286531,240.7512,-0.25,1
11261,2670279803,3,466034600,1949,9,1,47.4985923,19.199069,148.51,0.2745906,236.8887,-0.13,1
11325,2670479739,3,466034800,1949,9,1,47.4985921,19.1990685,148.5,0.3008322,254.5779,0.02,1
11389,2670679515,3,466035000,1949,9,1,47.498592,19.1990679,148.53,0.1431782,282.0948,-0.02,1
11451,2670879838,3,466035200,1949,9,1,47.4985918,19.1990677,148.51,0.1708801,200.5561,-0.09999999,1
11513,2671079500,3,466035400,1949,9,1,47.4985916,19.1990677,148.49,0.04242641,135,0.06,1
11575,2671279628,3,466035600,1949,9,1,47.4985914,19.1990678,148.46,0.1004988,174.2894,0.07,1
11639,2671479868,3,466035800,1949,9,1,47.4985914,19.1990677,148.55,0.11,0,-0.15,1
11701,2671679725,3,466036000,1949,9,1,47.4985913,19.1990678,148.58,0.2059126,150.9454,0.03,1
11765,2671879633,3,466036200,1949,9,1,47.498591,19.1990682,148.63,0.2376973,112.249,-0.03,1
11827,2672079456,3,466036400,1949,9,1,47.4985908,19.1990688,148.61,0.2408319,85.23635,-0.01,1
11891,2672279548,3,466036600,1949,9,1,47.4985909,19.1990691,148.61,0.08544003,339.444,-0.13,1
11955,2672479616,3,466036800,1949,9,1,47.4985909,19.1990692,148.58,0.05385165,21.80141,0.07,1
12017,2672679692,3,466037000,1949,9,1,47.4985909,19.1990693,148.54,0.03162277,18.43495,0.14,1
12079,2672879658,3,466037200,1949,9,1,47.498591,19.1990694,148.46,0.2184033,344.0546,0.38,1
12141,2673079615,3,466037400,1949,9,1,47.4985914,19.1990692,148.37,0.2376973,345.3791,0.62,1
12206,2673279650,3,466037600,1949,9,1,47.4985917,19.1990695,148.14,0.3361547,30.37913,0.81,1
12270,2673479546,3,466037800,1949,9,1,47.498592,19.1990698,147.93,0.1315295,351.2538,0.98,1
12334,2673699814,3,466038000,1949,9,1,47.498592,19.1990698,147.71,0.03162277,198.435,1.14,1
12394,2673879661,3,466038200,1949,9,1,47.4985918,19.1990696,147.41,0.2523886,236.3099,1.41,1
12456,2674079559,3,466038400,1949,9,1,47.4985914,19.1990693,147.15,0.254951,191.3099,1.39,1
12519,2674279715,3,466038600,1949,9,1,47.4985909,19.199069,146.83,0.3687818,220.6013,1.39,1
12583,2674479587,3,466038800,1949,9,1,47.4985905,19.1990684,146.57,0.2801785,214.8245,1.6,1
12645,2674679560,3,466039000,1949,9,1,47.4985901,19.1990681,146.25,0.2193171,226.8476,1.68,1
12710,2674879688,3,466039200,1949,9,1,47.4985898,19.1990678,145.93,0.2154066,201.8014,1.46,1
12772,2675079846,3,466039400,1949,9,1,47.4985895,19.1990674,145.69,0.2360085,233.6156,1.3,1
12834,2675279683,3,466039600,1949,9,1,47.498589,19.1990668,145.44,0.4601087,227.6425,1.11,1
12898,2675479831,3,466039800,1949,9,1,47.4985884,19.1990665,145.51,0.4272002,159.4439,-0.52,1
12962,2675679809,3,466040000,1949,9,1,47.4985881,19.1990667,145.59,0.02,270,0.05,1
13024,2675880098,3,466040200,1949,9,1,47.4985881,19.1990666,145.63,0.01,180,0.02,1
13086,2676080146,3,466040400,1949,9,1,47.4985881,19.1990665,145.62,0.03162277,71.56505,0.11,1
13148,2676279861,3,466040600,1949,9,1,47.4985881,19.1990667,145.6,0.1280625,51.34019,0,1
13213,2676479847,3,466040800,1949,9,1,47.498588,19.1990668,145.51,0.09433981,212.0054,0.09999999,1
13275,2676679780,3,466041000,1949,9,1,47.4985878,19.1990666,145.53,0.12,180,0.04,1
13337,2676880173,3,466041200,1949,9,1,47.4985873,19.1990667,145.52,0.3984972,162.4744,-0.17,1
13401,2677079695,3,466041400,1949,9,1,47.4985859,19.1990666,145.58,1.126144,189.7133,0.12,1
13463,2677279812,3,466041600,1949,9,1,47.4985847,19.1990648,145.53,1.172774,258.6901,0.06,1
13529,2677480121,3,466041800,1949,9,1,47.4985835,19.1990632,145.48,0.9243916,185.5872,0.48,1
13591,2677679639,3,466042000,1949,9,1,47.4985822,19.1990632,145.38,0.6007495,177.1376,0.46,1
13653,2677879741,3,466042200,1949,9,1,47.4985814,19.1990624,145.24,0.6083584,244.6986,0.79,1
13715,2678079682,3,466042400,1949,9,1,47.498581,19.1990624,145.07,0.4920366,127.5686,0.74,1
13778,2678279771,3,466042600,1949,9,1,47.4985813,19.199063,145.04,0.3848376,24.56717,-0.18,1
13842,2678479843,3,466042800,1949,9,1,47.4985832,19.1990625,145.04,1.237619,344.0546,0.07,1
13879,2678660327,3,466043000,1949,9,1,47.4985842,19.1990623,145.03,0.3931921,7.305758,-0.04,1
13968,2678879924,3,466043200,1949,9,1,47.4985836,19.1990625,144.95,0.6303174,178.1817,0.23,1
14030,2679079655,3,466043400,1949,9,1,47.4985833,19.1990616,144.93,0.4701064,268.7811,0.45,1
14093,2679279820,3,466043600,1949,9,1,47.498583,19.1990604,144.9,0.4810405,226.6847,0.33,1
14132,2679460177,3,466043800,1949,9,1,47.4985822,19.1990601,144.88,0.6041523,167.5741,0.36,1
14219,2679679765,3,466044000,1949,9,1,47.4985812,19.1990593,145.01,1.004639,202.225,0.09999999,1
14259,2959500141,4,466323800,1949,9,0.97,47.4985945,19.1990598,147.33,0.1360147,36.02737,-0.18,1
14321,2959700111,4,466324000,1949,9,0.97,47.4985946,19.1990602,147.24,0.2109502,31.42957,-0.13,1
14381,2959900100,4,466324200,1949,9,0.97,47.4985948,19.1990603,147.23,0.1414213,8.130102,-0.01,1
14441,2960100090,4,466324400,1949,9,0.97,47.4985947,19.1990605,147.18,0.06403124,128.6598,-0.05,1
14501,2960300205,4,466324600,1949,9,0.97,47.4985945,19.1990605,147.17,0.07615773,336.8014,-0.03,1
14563,2960500118,4,466324800,1949,9,0.97,47.4985943,19.1990605,147.13,0.08062258,209.7449,0.11,1
14625,2960700119,4,466325000,1949,9,0.97,47.4985941,19.1990605,147.11,0.08485281,135,0.09,1
14685,2960900216,4,466325200,1949,9,0.97,47.498594,19.1990607,147.11,0.0728011,164.0546,0.03,1
14745,2961100164,4,466325400,1949,9,0.97,47.4985937,19.199061,146.99,0.1649242,165.9637,0.24,1
14805,2961300194,4,466325600,1949,9,0.97,47.4985935,19.1990612,146.92,0.02,90,0.09,1
14868,2961500160,4,466325800,1949,9,0.97,47.4985932,19.1990616,146.94,0.2906888,139.1849,0.09,1
14928,2961719893,4,466326000,1949,9,0.97,47.4985929,19.199062,146.91,0.08602325,144.4623,0.02,1
14988,2961900113,4,466326200,1949,9,0.97,47.4985928,19.1990621,146.93,0.02828427,225,0.04,1
15048,2962100265,4,466326400,1949,9,0.97,47.4985925,19.1990623,146.88,0.13,157.3801,0.06,1
15110,2962300070,4,466326600,1949,9,0.97,47.4985922,19.1990627,146.84,0.1280625,141.3402,-0.07,1
15172,2962500177,4,466326800,1949,9,0.97,47.4985919,19.1990631,146.8,0.2483948,139.8991,0.18,1
15234,2962699941,4,466327000,1949,9,0.97,47.4985916,19.1990634,146.78,0.02236068,153.435,-0.06,1
15294,2962900198,4,466327200,1949,9,0.97,47.4985912,19.1990636,146.73,0.3206244,176.4237,0.13,1
15354,2963100148,4,466327400,1949,9,0.97,47.498591,19.1990637,146.67,0.1403567,355.9144,-0.03,1
15415,2963300165,4,466327600,1949,9,0.97,47.4985911,19.1990637,146.66,0.09055385,353.6598,-0.01,1
15477,2963500027,4,466327800,1949,9,0.97,47.498591,19.1990639,146.61,0.07211103,146.3099,0.08,1
15539,2963700023,4,466328000,1949,9,0.97,47.498591,19.1990638,146.56,0.1843909,319.3987,0.05,1
15599,2963900171,4,466328200,1949,9,0.97,47.4985911,19.1990637,146.55,0.07071067,315,0.01,1
15659,2964100041,4,466328400,1949,9,0.97,47.4985912,19.1990636,146.57,0.06082762,350.5377,0.05,1
15720,2964299835,4,466328600,1949,9,0.97,47.4985909,19.199064,146.45,0.2545584,135,0.18,1
15782,2964500109,4,466328800,1949,9,0.97,47.4985908,19.1990642,146.44,0.03605551,326.3099,0.12,1
15842,2964699866,4,466329000,1949,9,0.97,47.4985905,19.1990644,146.39,0.2952965,151.6992,0.07,1
15904,2964900169,4,466329200,1949,9,0.97,47.4985902,19.1990646,146.36,0.05,216.8699,0,1
15962,2965080324,4,466329400,1949,9,0.97,47.49859,19.1990646,146.3,0.06708204,116.565,0.06,1
16024,2965300165,4,466329600,1949,9,0.97,47.4985899,19.1990647,146.33,0.05,143.1301,0.07,1
16086,2965499886,4,466329800,1949,9,0.97,47.4985899,19.1990645,146.34,0.1280625,321.3402,-0.04,1
16146,2965699881,4,466330000,1949,9,0.97,47.4985899,19.1990645,146.32,0.08944272,63.43495,-0.02,1
16206,2965900053,4,466330200,1949,9,0.97,47.4985898,19.1990647,146.28,0.04242641,135,0,1
16268,2966099891,4,466330400,1949,9,0.97,47.4985897,19.1990647,146.28,0.0728011,164.0546,-0.02,1
16328,2966299982,4,466330600,1949,9,0.97,47.4985896,19.1990647,146.27,0.02236068,333.4349,0,1
16391,2966499991,4,466330800,1949,9,0.97,47.4985893,19.1990648,146.16,0.1824829,170.5377,0.21,1
16451,2966699900,4,466331000,1949,9,0.97,47.4985892,19.1990649,146.15,0.1526434,31.6075,0.03,1
16511,2966900168,4,466331200,1949,9,0.97,47.4985891,19.1990649,146.19,0.2302173,182.4896,0.2,1
16571,2967099833,4,466331400,1949,9,0.97,47.4985888,19.199065,146.13,0.1204159,138.3665,0.07,1
16633,2967299900,4,466331600,1949,9,0.97,47.4985888,19.1990651,146.1,0.2418677,352.875,-0.08,1
16695,2967499947,4,466331800,1949,9,0.97,47.4985889,19.199065,146.07,0.05,216.8699,0.14,1
16755,2967700113,4,466332000,1949,9,0.97,47.4985888,19.1990651,146.04,0.05385165,21.80141,0.12,1
16815,2967899885,4,466332200,1949,9,0.97,47.4985887,19.1990651,145.99,0.09999999,180,0.19,1
16875,2968100099,4,466332400,1949,9,0.97,47.4985886,19.1990651,145.97,0.05,270,0.09,1
16936,2968300007,4,466332600,1949,9,0.97,47.4985888,19.1990649,146.05,0.1019804,348.6901,-0.09,1
16998,2968500029,4,466332800,1949,9,0.97,47.4985888,19.199065,146.04,0.05656854,135,0.05,1
17060,2968700177,4,466333000,1949,9,0.97,47.4985888,19.1990651,146.01,0.06082762,9.462321,0.05,1
17120,2968900056,4,466333200,1949,9,0.97,47.4985888,19.1990653,145.98,0.14,90,0.19,1
17180,2969100072,4,466333400,1949,9,0.97,47.4985888,19.1990656,145.86,0.09486832,18.43495,0.01,1
17239,2969280112,4,466333600,1949,9,0.97,47.4985889,19.1990657,145.87,0.05656854,45,0.09999999,1
17313,2972500057,4,466336800,1949,9,0.97,47.4985877,19.1990659,145.5,0.04123105,165.9637,0.21,1
17373,2972700188,4,466337000,1949,9,0.97,47.4985876,19.1990658,145.46,0.08602325,215.5377,0.28,1
17433,2972900114,4,466337200,1949,9,0.97,47.4985876,19.1990655,145.45,0.04123105,194.0363,0.06,1
17493,2973099974,4,466337400,1949,9,0.97,47.4985875,19.1990654,145.44,0.1603122,176.4237,0.08,1
17554,2973300066,4,466337600,1949,9,0.97,47.4985874,19.1990653,145.42,0.06403124,308.6598,0,1
17619,2973499892,4,466337800,1949,9,0.97,47.4985875,19.1990651,145.43,0.1019804,168.6901,0.05,1
17679,2973719988,4,466338000,1949,9,0.97,47.4985875,19.199065,145.43,0.1004988,264.2894,0.01,1
17739,2973900038,4,466338200,1949,9,0.97,47.4985875,19.1990648,145.4,0.05656854,315,0,1
17799,2974100169,4,466338400,1949,9,0.97,47.4985878,19.1990646,145.42,0.2039608,348.6901,0.01,1
17862,2974300105,4,466338600,1949,9,0.97,47.498588,19.1990644,145.42,0.08944272,296.5651,0.01,1
17925,2974500081,4,466338800,1949,9,0.97,47.498588,19.1990642,145.5,0.210238,154.6538,-0.02,1
17985,2974700092,4,466339000,1949,9,0.97,47.4985878,19.1990643,145.53,0.05656854,135,-0.05,1
18045,2974900173,4,466339200,1949,9,0.97,47.4985878,19.1990641,145.49,0.1044031,286.6992,-0.03,1
18105,2975100033,4,466339400,1949,9,0.97,47.4985877,19.1990639,145.49,0.08485281,135,0,1
18167,2975300184,4,466339600,1949,9,0.97,47.4985877,19.1990639,145.47,0.07810249,50.19443,-0.06,1
18229,2975500037,4,466339800,1949,9,0.97,47.4985877,19.199064,145.47,0.0728011,105.9454,-0.07,1
18289,2975700171,4,466340000,1949,9,0.97,47.4985876,19.199064,145.49,0.05830951,149.0362,-0.05,1
18349,2975900215,4,466340200,1949,9,0.97,47.4985877,19.1990641,145.56,0.1431782,65.22486,-0.08,1
18409,2976100027,4,466340400,1949,9,0.97,47.4985877,19.1990641,145.54,0.05385165,291.8014,0.03,1
18471,2976299881,4,466340600,1949,9,0.97,47.4985879,19.1990639,145.48,0.1868154,344.4759,0.01,1
18534,2976500156,4,466340800,1949,9,0.97,47.498588,19.1990639,145.46,0.08544003,110.556,0.01,1
18594,2976700397,4,466341000,1949,9,0.97,47.4985881,19.1990639,145.45,0.1140175,344.7449,-0.14,1
18656,2976900316,4,466341200,1949,9,0.97,47.4985883,19.1990637,145.45,0.04242641,315,0.07,1
18716,2977100174,4,466341400,1949,9,0.97,47.4985883,19.1990635,145.44,0.02828427,315,0.01,1
18776,2977299923,4,466341600,1949,9,0.97,47.4985884,19.1990632,145.5,0.1315295,278.7462,0,1
18838,2977500029,4,466341800,1949,9,0.97,47.4985884,19.199063,145.43,0.04472136,206.565,-0.05,1
18898,2977700310,4,466342000,1949,9,0.97,47.4985883,19.1990627,145.34,0.1360147,287.1027,0.07,1
18958,2977899900,4,466342200,1949,9,0.97,47.4985885,19.1990625,145.36,0.09,0,0.03,1
19020,2978100334,4,466342400,1949,9,0.97,47.4985885,19.1990626,145.37,0.156205,129.8056,0.15,1
19081,2978300086,4,466342600,1949,9,0.97,47.4985884,19.1990627,145.3,0.02236068,63.43495,-0.06,1
19143,2978500132,4,466342800,1949,9,0.97,47.4985884,19.1990628,145.27,0.05099019,78.69006,-0.01,1
19203,2978700319,4,466343000,1949,9,0.97,47.4985883,19.1990628,145.21,0.04123105,345.9637,0.08,1
19263,2978900295,4,466343200,1949,9,0.97,47.4985884,19.1990627,145.18,0.05,0,0.06,1
19325,2979100106,4,466343400,1949,9,0.97,47.4985884,19.1990627,145.19,0.1334166,167.0054,0.19,1
19386,2979300133,4,466343600,1949,9,0.97,47.4985883,19.1990627,145.21,0.02236068,333.4349,-0.03,1
19448,2979500187,4,466343800,1949,9,0.97,47.4985882,19.199063,145.19,0.2459675,116.565,-0.11,1
19508,2979700329,4,466344000,1949,9,0.97,47.4985881,19.1990633,145.2,0.04472136,206.565,-0.01,1
19570,2979900266,4,466344200,1949,9,0.97,47.4985881,19.1990634,145.14,0.1612452,29.74488,0.01,1
19630,2980100110,4,466344400,1949,9,0.97,47.4985882,19.1990636,145.09,0.06708204,153.435,-0.04,1
19690,2980300094,4,466344600,1949,9,0.97,47.4985879,19.1990636,145.07,0.1334166,192.9946,-0.02,1
19752,2980500347,4,466344800,1949,9,0.97,47.4985878,19.1990637,145.06,0.08062258,60.25511,-0.03,1
19812,2980700096,4,466345000,1949,9,0.97,47.4985878,19.1990638,145.05,0.02,0,0.05,1
19872,2980900228,4,466345200,1949,9,0.97,47.4985876,19.199064,144.97,0.1486607,132.2737,0.07,1
19934,2981100162,4,466345400,1949,9,0.97,47.4985875,19.1990641,144.94,0.06,0,-0.03,1
19994,2981300203,4,466345600,1949,9,0.97,47.4985875,19.1990642,144.85,0.02236068,26.56505,0.12,1
20056,2981499880,4,466345800,1949,9,0.97,47.4985875,19.199064,144.87,0.07211103,236.3099,0.07,1
20116,2981700015,4,466346000,1949,9,0.97,47.4985874,19.1990638,144.85,0.08602325,234.4623,0.09,1
20176,2981900445,4,466346200,1949,9,0.97,47.4985874,19.1990637,144.87,0.06403124,128.6598,0.02,1
20238,2982099848,4,466346400,1949,9,0.97,47.4985873,19.1990638,144.86,0.07071067,225,-0.01,1
20298,2982300167,4,466346600,1949,9,0.97,47.4985871,19.1990638,144.79,0.09848858,156.0375,0.05,1
20360,2982500008,4,466346800,1949,9,0.97,47.498587,19.1990639,144.76,0.0728011,164.0546,0.11,1
20420,2982700146,4,466347000,1949,9,0.97,47.498587,19.1990639,144.77,0.05656854,135,0.05,1
20480,2982900177,4,466347200,1949,9,0.97,47.4985871,19.1990639,144.8,0.0728011,344.0546,0.02,1
20541,2983100096,4,466347400,1949,9,0.97,47.4985874,19.1990638,144.84,0.08944272,26.56505,-0.04,1
20602,2983300130,4,466347600,1949,9,0.97,47.4985875,19.1990637,144.81,0.04123105,284.0363,0.08,1
20666,2983500097,4,466347800,1949,9,0.97,47.4985876,19.1990636,144.84,0.03,180,0.04,1
20726,2983700313,4,466348000,1949,9,0.97,47.4985876,19.1990635,144.83,0.150333,183.8141,0.07,1
20786,2983900156,4,466348200,1949,9,0.97,47.4985876,19.1990636,144.85,0.08,90,-0.04,1
20848,2984100165,4,466348400,1949,9,0.97,47.4985876,19.1990635,144.92,0.08544003,249.444,-0.3,1
20909,2984300196,4,466348600,1949,9,0.97,47.4985878,19.1990634,144.95,0.2137756,349.2157,-0.72,1
20971,2984500328,4,466348800,1949,9,0.97,47.4985888,19.1990629,145.13,0.8041144,338.8602,-1.13,1
21031,2984700317,4,466349000,1949,9,0.97,47.4985901,19.199062,145.41,0.7343024,330.6422,-1.11,1
21093,2984900327,4,466349200,1949,9,0.97,47.4985914,19.1990608,145.67,0.846286,324.6197,-1.48,1
21153,2985100196,4,466349400,1949,9,0.97,47.498593,19.1990594,145.97,1.054751,328.5704,-1.43,1
21213,2985300450,4,466349600,1949,9,0.97,47.498595,19.1990578,146.16,1.350703,332.6761,-1.2,1
21275,2985500194,4,466349800,1949,9,0.97,47.4985968,19.199056,146.39,1.058915,320.7487,-1.03,1
21337,2985720198,4,466350000,1949,9,0.97,47.4985984,19.199054,146.54,1.204159,318.3665,-0.68,1
21397,2985901131,4,466350200,1949,9,0.97,47.4986003,19.1990517,146.68,1.44423,317.8064,-0.61,1
21457,2986100819,4,466350400,1949,9,0.97,47.4986026,19.199049,146.83,1.684429,324.4228,-0.45,1
21517,2986300687,4,466350600,1949,9,0.97,47.498605,19.1990465,146.9,1.539415,325.5873,-0.39,1
21580,2986500594,4,466350800,1949,9,0.97,47.4986076,19.1990441,146.93,1.814718,328.0616,-0.34,1
21640,2986700684,4,466351000,1949,9,0.97,47.4986103,19.1990414,146.97,1.76672,326.3099,-0.45,1
21702,2986900702,4,466351200,1949,9,0.97,47.4986132,19.1990387,146.98,1.974968,327.1951,-0.14,1
21762,2987100928,4,466351400,1949,9,0.97,47.4986165,19.1990356,147.02,2.277938,327.9146,-0.16,1
21822,2987300681,4,466351600,1949,9,0.97,47.4986198,19.1990327,147.02,1.93,330.5129,-0.03,1
21884,2987500575,4,466351800,1949,9,0.97,47.4986232,19.1990299,147.1,2.214159,332.2776,-0.02,1
21944,2987700794,4,466352000,1949,9,0.97,47.4986266,19.1990269,147.1,2.160671,326.8983,0.04,1
22005,2987900664,4,466352200,1949,9,0.97,47.4986302,19.1990234,147.15,2.501699,326.2464,0.09,1
22066,2988100631,4,466352400,1949,9,0.97,47.498634,19.1990195,147.2,2.57841,324.1523,0.05,1
22127,2988300799,4,466352600,1949,9,0.97,47.498638,19.1990152,147.11,2.822003,323.2113,0.09999999,1
22189,2988500484,4,466352800,1949,9,0.97,47.498642,19.1990106,147.12,2.736421,322.125,0.18,1
22249,2988700866,4,466353000,1949,9,0.97,47.4986458,19.1990061,147.18,2.540964,321.5515,0.02,1
22309,2988900825,4,466353200,1949,9,0.97,47.4986495,19.1990023,147.12,2.495376,328.6031,0.06,1
22369,2989100907,4,466353400,1949,9,0.97,47.4986526,19.1989987,147.06,1.930518,315.6296,0.26,1
22430,2989300804,4,466353600,1949,9,0.97,47.4986548,19.1989952,146.98,1.621142,312.2499,0.18,1
22494,2989500816,4,466353800,1949,9,0.97,47.4986565,19.1989922,146.91,1.340149,307.725,0.15,1
22554,2989700462,4,466354000,1949,9,0.97,47.4986574,19.1989902,146.86,0.4741308,297.646,0.33,1
22614,2989900456,4,466354200,1949,9,0.97,47.4986579,19.1989893,146.89,0.51,331.9275,0.04,1
22676,2990100903,4,466354400,1949,9,0.97,47.4986587,19.1989889,146.85,0.4501111,358.727,0.15,1
22736,2990300564,4,466354600,1949,9,0.97,47.4986594,19.1989892,146.84,0.446878,40.46222,0.05,1
22798,2990500644,4,466354800,1949,9,0.97,47.4986601,19.1989901,146.82,0.6296824,46.93058,0.2,1
22858,2990700905,4,466355000,1949,9,0.97,47.4986611,19.1989919,146.72,1.118258,51.90033,0.24,1
22920,2990900650,4,466355200,1949,9,0.97,47.4986624,19.1989947,146.69,1.482228,60.49485,0.24,1
22980,2991100856,4,466355400,1949,9,0.97,47.4986635,19.1989982,146.68,1.493251,73.264,0.3,1
23040,2991300717,4,466355600,1949,9,0.97,47.4986643,19.1990019,146.66,1.518321,75.50613,0.14,1
23102,2991500551,4,466355800,1949,9,0.97,47.4986645,19.1990059,146.6,1.531176,92.24574,0.26,1
23162,2991701142,4,466356000,1949,9,0.97,47.4986637,19.1990099,146.45,1.6772,115.8012,0.48,1
23222,2991900804,4,466356200,1949,9,0.97,47.4986619,19.1990136,146.37,1.824555,134.1118,0.23,1
23284,2992100796,4,466356400,1949,9,0.97,47.4986588,19.1990167,146.26,2.375921,151.6012,0.41,1
23344,2992300593,4,466356600,1949,9,0.97,47.4986545,19.1990195,146.17,2.869041,158.5323,0.21,1
23406,2992500606,4,466356800,1949,9,0.97,47.4986493,19.1990219,146.17,3.192491,164.7449,-0.16,1
23468,2992700513,4,466357000,1949,9,0.97,47.4986436,19.1990242,146.21,3.432812,164.6278,-0.11,1
23528,2992900933,4,466357200,1949,9,0.97,47.4986377,19.1990264,146.26,3.298484,165.9637,-0.16,1
23586,2993080683,4,466357400,1949,9,0.97,47.4986319,19.1990283,146.31,3.265899,167.6234,-0.09,1
23649,2993300612,4,466357600,1949,9,0.97,47.4986264,19.1990301,146.36,2.983907,167.2213,-0.08,1
23711,2993500559,4,466357800,1949,9,0.97,47.4986216,19.1990316,146.39,2.586987,167.9516,0.13,1
23771,2993700783,4,466358000,1949,9,0.97,47.4986173,19.1990328,146.4,2.303258,170.2514,0.09,1
23831,2993900532,4,466358200,1949,9,0.97,47.4986138,19.1990337,146.43,1.67872,171.4355,0.11,1
23891,2994100767,4,466358400,1949,9,0.97,47.498611,19.1990344,146.42,1.445441,169.2342,0.15,1
23954,2994300514,4,466358600,1949,9,0.97,47.498609,19.1990351,146.37,0.8477027,162.8476,0.15,1
24016,2994500596,4,466358800,1949,9,0.97,47.4986075,19.1990358,146.35,0.8254089,160.9065,0.11,1
24076,2994700555,4,466359000,1949,9,0.97,47.4986067,19.1990363,146.38,0.2469818,148.2405,0,1
24136,2994900677,4,466359200,1949,9,0.97,47.4986063,19.1990366,146.49,0.25,143.1301,-0.29,1
24196,2995101021,4,466359400,1949,9,0.97,47.4986062,19.1990367,146.58,0.06082762,260.5377,-0.52,1
24256,2995300491,4,466359600,1949,9,0.97,47.4986064,19.1990364,146.71,0.2332381,329.0363,-0.64,1
24320,2995500682,4,466359800,1949,9,0.97,47.4986066,19.1990361,146.82,0.1627882,312.5104,-0.69,1
24380,2995700852,4,466360000,1949,9,0.97,47.4986071,19.1990356,147.06,0.4661545,324.6052,-0.79,1
24440,2995900463,4,466360200,1949,9,0.97,47.4986075,19.199035,147.25,0.2830194,302.0054,-0.71,1
24500,2996100872,4,466360400,1949,9,0.97,47.4986082,19.1990344,147.43,0.6964194,338.9625,-0.76,1
24562,2996300959,4,466360600,1949,9,0.97,47.4986092,19.1990335,147.6,0.6511528,317.4896,-0.74,1
24625,2996501195,4,466360800,1949,9,0.97,47.4986101,19.1990321,147.7,0.8417244,313.5559,-0.61,1
24685,2996701206,4,466361000,1949,9,0.97,47.4986111,19.1990304,147.87,0.9340771,307.606,-0.7,1
24745,2996900969,4,466361200,1949,9,0.97,47.498612,19.1990285,148,0.9060353,307.3758,-0.59,1
24805,2997100893,4,466361400,1949,9,0.97,47.4986128,19.1990267,148.04,0.8481155,307.8157,-0.43,1
24866,2997301030,4,466361600,1949,9,0.97,47.4986141,19.1990247,148.14,1.204159,318.3665,-0.54,1
24930,2997501118,4,466361800,1949,9,0.97,47.4986162,19.1990226,148.46,1.567737,328.0334,-0.92,1
24990,2997700973,4,466362000,1949,9,0.97,47.4986181,19.1990205,148.57,1.226744,319.2974,-0.69,1
25050,2997901124,4,466362200,1949,9,0.97,47.4986201,19.1990185,148.7,1.538831,332.1027,-0.85,1
25115,2998103570,4,466362400,1949,9,0.97,47.4986222,19.1990167,148.87,1.245351,325.7995,-0.44,1
25178,2998304124,4,466362600,1949,9,0.97,47.4986242,19.1990149,149.02,1.410319,330.7086,-0.46,1
25242,2998504414,4,466362800,1949,9,0.97,47.4986261,19.1990129,149.11,1.401214,317.3137,-0.13,1
25304,2998704445,4,466363000,1949,9,0.97,47.498628,19.19901,149.12,1.746568,314.768,-0.04,1
25368,2998905346,4,466363200,1949,9,0.97,47.4986299,19.1990071,149.15,1.463728,315.2768,-0.15,1
25430,2999105931,4,466363400,1949,9,0.97,47.4986318,19.1990048,149.18,1.347924,326.192,-0.24,1
25493,2999306750,4,466363600,1949,9,0.97,47.4986335,19.199003,149.22,1.09859,325.008,-0.2,1
25555,2999488104,4,466363800,1949,9,0.97,47.4986351,19.1990021,149.24,0.9055385,353.6598,-0.14,1
25619,2999708172,4,466364000,1949,9,0.97,47.4986369,19.1990027,149.31,1.24888,24.10223,-0.07,1
25683,2999909468,4,466364200,1949,9,0.97,47.4986385,19.1990041,149.31,0.8823264,35.31121,-0.14,1
25743,3000090657,4,466364400,1949,9,0.97,47.4986396,19.1990058,149.32,0.986002,53.24632,-0.21,1
25805,3000291615,4,466364600,1949,9,0.97,47.4986406,19.1990078,149.39,0.89627,54.53663,-0.23,1
25869,3000491746,4,466364800,1949,9,0.97,47.4986415,19.1990095,149.43,0.8273451,44.5103,-0.19,1
25931,3000692394,4,466365000,1949,9,0.97,47.4986422,19.1990109,149.43,0.5011985,61.38954,-0.14,1
25995,3000912800,4,466365200,1949,9,0.97,47.4986426,19.1990119,149.45,0.3466987,56.76829,-0.27,1
26057,3001094226,4,466365400,1949,9,0.97,47.4986426,1253,149.57,0.09219544,139.3987,-0.26,1
26119,3001295307,4,466365600,1949,9,0.97,47.4986424,19.1990122,149.63,0.176918,222.7094,-0.47,1
26183,3001495584,4,466365800,1949,9,0.97,47.498642,19.1990117,149.68,0.4081666,210.9638,-0.2,1
26245,3001696085,4,466366000,1949,9,0.97,47.4986415,19.1990109,149.7,0.35,233.1301,-0.26,1
26307,3001896702,4,466366200,1949,9,0.97,47.4986411,19.1990102,149.7,0.3661967,214.992,-0.09,1
26371,3002097221,4,466366400,1949,9,0.97,47.4986408,19.1990094,638,0.31257,262.6476,-0.16,1
26433,3002298378,4,466366600,1949,9,0.97,47.4986408,19.199009,149.7,0.08602325,125.5377,-0.11,1
26497,3002499297,4,466366800,1949,9,0.97,47.4986409,19.1990091,149.6,0.1565248,26.56505,0.06,1
26559,3002700137,4,466367000,1949,9,0.97,47.4986411,19.1990092,149.58,0.1204159,41.63354,0.13,1
26621,3002901247,4,466367200,1949,9,0.97,47.4986413,19.1990092,149.57,0.1403567,355.9144,-0.01,1
26684,3003101957,4,466367400,1949,9,0.97,47.4986417,19.1990091,149.55,0.3080584,13.13402,0.04,1
26748,3003302610,4,466367600,1949,9,0.97,47.4986424,19.1990091,149.55,0.4328972,6.632514,0.09,1
26812,3003502868,4,466367800,1949,9,0.97,47.498643,19.1990092,149.53,0.2376973,22.24902,-0.11,1
26876,3003723867,4,466368000,1949,9,0.97,47.4986434,19.1990093,149.5,0.1280625,51.34019,-0.02,1
26911,3003885348,4,466368200,1949,9,0.97,47.4986436,19.1990094,149.5,0.1208305,24.44395,-0.09999999,1
26998,3004105222,4,466368400,1949,9,0.97,47.4986437,19.1990094,149.48,0.08602325,144.4623,-0.09,1
27036,3004286262,4,466368600,1949,9,0.97,47.4986436,19.1990094,149.46,0.1044031,163.3008,-0.02,1
27102,3004487399,4,466368800,1949,9,0.97,47.4986434,19.1990094,149.41,0.235372,167.7352,0.02,1
27164,3004688363,4,466369000,1949,9,0.97,47.498643,19.1990093,149.45,0.1555635,225,-0.11,1
27226,3004889711,4,466369200,1949,9,0.97,47.4986427,19.1990089,149.47,0.15,216.8699,-0.06,1
27290,3005090358,4,466369400,1949,9,0.97,47.4986424,19.1990086,149.45,0.2570992,193.4957,-0.14,1
27352,3005290573,4,466369600,1949,9,0.97,47.498642,19.1990084,149.39,0.1403567,175.9144,-0.13,1
27416,3005490918,4,466369800,1949,9,0.97,47.4986419,19.199008,149.34,0.1431782,282.0948,-0.18,1
27478,3005691880,4,466370000,1949,9,0.97,47.4986416,19.199008,149.46,0.07071067,8.130102,-0.17,1
27540,3005892528,4,466370200,1949,9,0.97,47.4986416,19.199008,149.47,0.06403124,141.3402,-0.08,1
27604,3006093693,4,466370400,1949,9,0.97,47.4986415,19.1990081,149.52,0.1456022,105.9454,-0.16,1
27666,3006294052,4,466370600,1949,9,0.97,47.4986414,19.1990084,149.48,0.1392839,68.96249,-0.21,1
27733,3006494235,4,466370800,1949,9,0.97,47.4986413,19.1990086,149.54,0.1655294,154.9831,-0.23,1
27795,3006695040,4,466371000,1949,9,0.97,47.498641,19.1990088,149.54,0.2765863,130.6013,-0.16,1
27857,3006895477,4,466371200,1949,9,0.97,47.4986406,19.1990092,149.59,0.2662705,145.7131,-0.25,1
27921,3007096298,4,466371400,1949,9,0.97,47.4986405,19.1990094,149.64,0.116619,59.03624,-0.39,1
27983,3007296699,4,466371600,1949,9,0.97,47.4986405,19.1990097,149.71,0.1104536,95.19443,-0.25,1
28047,3007498525,4,466371800,1949,9,0.97,47.4986404,19.1990098,149.81,0.09433981,32.00538,-0.47,1
28109,3007699535,4,466372000,1949,9,0.97,47.4986405,19.1990099,149.91,0.1749285,30.96376,-0.37,1
28171,3007900874,4,466372200,1949,9,0.97,115,19.19901,149.91,0.1360147,36.02737,-0.35,1
28233,3008102057,4,466372400,1949,9,0.97,47.498641,19.1990101,149.94,0.2147091,27.75854,-0.32,1
28298,3008303253,4,466372600,1949,9,0.97,47.4986413,19.1990102,149.94,0.1236932,14.03624,-0.29,1
28360,3008484147,4,466372800,1949,9,0.97,47.4986416,19.1990101,149.97,0.1523155,336.8014,-0.2,1
28424,3008704082,4,466373000,1949,9,0.97,47.4986417,19.1990099,149.99,0.05385165,111.8014,-0.15,1
28486,3008904323,4,466373200,1949,9,0.97,47.4986419,19.1990099,150.05,0.2418677,352.875,-0.37,1
28546,3009085088,4,466373400,1949,9,0.97,47.4986421,19.19901,150.1,0.1403567,85.91438,-0.38,1
28609,3009286988,4,466373600,1949,9,0.97,47.4986423,19.1990104,150.17,0.1664332,57.26477,-0.34,1
28675,3009488343,4,466373800,1949,9,0.97,47.4986424,19.1990107,150.23,0.1780449,38.15723,-0.39,1
28739,3009710178,4,466374000,1949,9,0.97,47.4986426,19.199011,150.28,0.1523155,66.80141,-0.24,1
28799,3009890174,4,466374200,1949,9,0.97,47.4986426,19.1990113,150.39,0.02828427,135,-0.33,1
28863,3010090701,4,466374400,1949,9,0.97,47.4986426,19.1990115,150.42,0.09848858,66.03751,-0.34,1
28927,3010291826,4,466374600,1949,9,0.97,47.4986426,19.1990116,150.42,0.0728011,285.9454,-0.19,1
28991,3010492530,4,466374800,1949,9,0.97,47.4986427,19.1990112,150.36,0.1910497,276.009,0.09999999,1
29053,3010694144,4,466375000,1949,9,0.97,47.4986427,19.1990109,150.37,0.08062258,119.7449,-0.08,1
29115,3010894516,4,466375200,1949,9,0.97,47.4986426,19.1990106,150.43,0.2469818,248.6294,-0.08,1
29179,3011095826,4,466375400,1949,9,0.97,47.4986425,19.1990096,150.46,0.5323532,275.3893,-0.21,1
29241,3011296604,4,466375600,1949,9,0.97,47.4986425,19.1990078,150.48,0.780064,270.7345,-0.36,1
29305,3011496583,4,466375800,1949,9,0.97,47.4986422,19.1990054,150.51,1.132652,256.2091,-0.25,1
29369,3011696889,4,466376000,1949,9,0.97,47.4986416,19.1990021,150.57,1.431782,257.9053,-0.46,1
29431,3011898528,4,466376200,1949,9,0.97,47.498641,19.198998,150.69,1.786197,262.2782,-0.52,1
29493,3012100465,4,466376400,1949,9,0.97,47.4986406,19.1989932,150.9,1.990904,268.273,-0.8,1
29555,3012300217,4,466376600,1949,9,0.97,47.4986409,19.1989874,151.07,2.438216,280.1577,-0.82,1
29619,3012501378,4,466376800,1949,9,0.97,47.4986419,19.1989806,151.18,2.937363,284.7932,-0.86,1
29681,3012702463,4,466377000,1949,9,0.97,47.4986433,19.1989725,151.28,3.373425,281.9761,-1.02,1
29745,3012903333,4,466377200,1949,9,0.97,47.4986447,19.1989634,151.51,3.847661,285.3727,-1.1,1
29807,3013084082,4,466377400,1949,9,0.97,47.4986466,19.1989526,151.71,4.562467,283.3052,-1.15,1
29870,3013305041,4,466377600,1949,9,0.97,47.4986482,19.1989404,151.97,4.881813,280.5043,-1.22,1
29934,3013505934,4,466377800,1949,9,0.97,47.4986499,19.1989271,152.15,5.414988,281.8287,-1.31,1
29998,3013687039,4,466378000,1949,9,0.97,47.4986517,19.1989133,152.39,5.310838,281.183,-1.51,1
30060,3013907966,4,466378200,1949,9,0.97,47.4986531,19.1988991,152.57,5.819837,277.5036,-1.55,1
30122,3014089620,4,466378400,1949,9,0.97,47.4986544,19.1988842,153.02,5.370708,277.0589,-1.79,1
30185,3014291260,4,466378600,1949,9,0.97,47.4986555,19.1988699,153.26,5.693681,277.8739,-1.54,1
30249,3014492125,4,466378800,1949,9,0.97,47.4986568,19.1988552,153.57,5.734675,277.9182,-1.58,1
30311,3014693706,4,466379000,1949,9,0.97,47.4986584,19.1988402,153.84,5.872052,280.6976,-1.58,1
30373,3014894803,4,466379200,1949,9,0.97,47.4986604,19.198825,154.15,5.836797,281.9645,-1.69,1
30437,3015095361,4,466379400,1949,9,0.97,47.4986622,19.19881,154.41,5.826328,279.2845,-1.26,1
30499,3015296857,4,466379600,1949,9,0.97,47.4986642,19.1987947,154.7,5.988397,282.342,-1.49,1
30563,3015497842,4,466379800,1949,9,0.97,47.4986664,19.1987791,154.94,6.119036,281.7874,-1.32,1
30627,3015699323,4,466380000,1949,9,0.97,47.4986689,396,155.27,6.556256,284.7569,-1.51,1
30689,3015900398,4,466380200,1949,9,0.97,47.4986714,19.1987464,155.53,6.242539,280.8959,-1.42,1
30751,3016102172,4,466380400,1949,9,0.97,47.4986737,19.19873,155.83,6.436342,282.6543,-1.63,1
30813,3016303188,4,466380600,1949,9,0.97,47.4986763,19.1987138,156.13,6.245294,283.9918,-1.65,1
30878,3016504969,4,466380800,1949,9,0.97,47.4986786,19.1986979,156.47,6.128629,281.2916,-1.67,1
30940,3016685328,4,466381000,1949,9,0.97,47.4986805,19.1986821,156.77,6.016195,278.5072,-1.75,1
31002,3016885684,4,466381200,1949,9,0.97,47.498682,19.1986666,157.1,5.891638,278.2951,-1.68,1
31066,3017106756,4,466381400,1949,9,0.97,47.4986833,19.1986514,157.42,5.839726,276.6869,-1.57,1
31126,3017288464,4,466381600,1949,9,0.97,47.4986843,19.198636,157.64,5.84658,274.316,-1.37,1
31190,3017488914,4,466381800,1949,9,0.97,47.4986853,19.1986204,157.98,6.014466,276.9714,-1.56,1
31254,3017690019,4,466382000,1949,9,0.97,47.4986867,19.1986047,158.27,5.968249,278.6732,-1.7,1
31316,3017890501,4,466382200,1949,9,0.97,47.4986883,19.1985889,158.62,6.111178,278.7533,-1.7,1
31378,3018090400,4,466382400,1949,9,0.97,47.4986898,19.1985728,158.96,6.14193,278.1433,-1.52,1
31441,3018291013,4,466382600,1949,9,0.97,47.4986913,19.1985567,159.28,6.122491,277.5081,-1.79,1
31505,3018492460,4,466382800,1949,9,0.97,47.4986927,19.1985408,159.52,6.063011,277.5822,-1.6,1
31569,3018693983,4,466383000,1949,9,0.97,47.4986942,19.1985248,159.79,6.092438,278.2099,-1.37,1
31631,3018895184,4,466383200,1949,9,0.97,47.4986955,19.1985091,160.06,5.824174,276.2098,-1.37,1
31693,3019096239,4,466383400,1949,9,0.97,47.4986966,19.1984939,160.3,5.771395,276.8664,-1.38,1
31756,3019296169,4,466383600,1949,9,0.97,47.4986978,19.1984786,160.59,5.776314,277.2603,-1.17,1
31820,3019497070,4,466383800,1949,9,0.97,47.498699,19.1984632,160.81,5.933844,276.9693,-1,1
31884,3019697797,4,466384000,1949,9,0.97,47.4987004,19.1984475,161.05,5.976521,277.886,-1.21,1
31946,3019898594,4,466384200,1949,9,0.97,47.4987015,19.1984319,161.25,5.902948,275.0538,-1.38,1
32008,3020099543,4,466384400,1949,9,0.97,47.4987026,19.1984161,161.44,6.117393,277.1367,-1.11,1
32070,3020301026,4,466384600,1949,9,0.97,47.4987041,19.1983997,161.64,6.362555,278.041,-1.16,1
32134,3020501831,4,466384800,1949,9,0.97,47.4987055,19.1983832,161.96,6.154421,276.0626,-1.33,1
32196,3020703187,4,466385000,1949,9,0.97,47.4987064,19.198367,162.24,6.134395,273.9259,-1.46,1
32260,3020904491,4,466385200,1949,9,0.97,47.4987073,19.1983508,162.59,6.141181,276.639,-1.47,1
32322,3021085456,4,466385400,1949,9,0.97,47.4987086,19.1983346,162.98,6.154868,277.6562,-1.82,1
32384,3021306603,4,466385600,1949,9,0.97,47.49871,19.1983185,163.24,6.178746,277.9072,-1.74,1
32448,3021487083,4,466385800,1949,9,0.97,47.4987113,19.1983024,163.59,6.091518,276.6934,-1.82,1
32510,3021708436,4,466386000,1949,9,0.97,47.4987127,19.1982861,163.87,6.341561,278.6157,-1.41,1
32572,3021889383,4,466386200,1949,9,0.97,47.4987141,19.1982701,164.24,5.850829,276.7728,-1.56,1
32634,3022090096,4,466386400,1949,9,0.97,47.4987153,19.1982549,164.47,5.724771,277.9319,-1.37,1
32698,3022290872,4,466386600,1949,9,0.97,47.4987166,19.1982399,164.8,5.703587,277.8602,-1.22,1
32762,3022491548,4,466386800,1949,9,0.97,47.4987178,19.198225,165.01,5.693198,277.0626,-1.39,1
32824,3022692370,4,466387000,1949,9,0.97,47.498719,19.19821,165.25,5.71183,276.9384,-1.18,1
32886,3022892424,4,466387200,1949,9,0.97,47.4987203,19.1981949,165.47,5.777066,278.06,-1.17,1
32948,3023093437,4,466387400,1949,9,0.97,47.4987218,19.1981798,165.73,5.828181,279.9795,-1.21,1
33011,3023294474,4,466387600,1949,9,0.97,47.4987235,19.1981644,165.96,5.908942,278.7609,-1.23,1
33075,3023494627,4,466387800,1949,9,0.97,47.4987252,19.1981491,166.23,5.879609,281.0806,-1.14,1
33137,3023696211,4,466388000,1949,9,0.97,47.498727,19.1981335,166.55,6.084414,279.5552,-1.48,1
33201,3023897351,4,466388200,1949,9,0.97,47.4987283,19.1981181,166.88,5.735477,275.4025,-1.42,1
33263,3024098046,4,466388400,1949,9,0.97,47.4987295,19.1981027,167.21,5.955342,277.8172,-1.49,1
33326,3024299562,4,466388600,1949,9,0.97,47.4987305,19.1980874,167.46,5.644909,274.1652,-1.4,1
33390,3024500528,4,466388800,1949,9,0.97,47.4987314,19.1980722,167.75,5.858438,276.567,-1.51,1
33452,3024701134,4,466389000,1949,9,0.97,47.4987323,19.1980569,168.04,5.773872,273.9725,-1.48,1
33489,3024881693,4,466389200,1949,9,0.97,47.4987327,19.1980419,168.26,5.550441,270.7226,-1.52,1
33578,3025101790,4,466389400,1949,9,0.97,47.498733,19.198027,168.57,5.671437,273.6393,-1.26,1
33640,3025302612,4,466389600,1949,9,0.97,47.498734,19.1980123,168.95,5.491457,277.8498,-1.41,1
33704,3025503551,4,466389800,1949,9,0.97,47.4987349,19.1979976,169.16,5.676425,272.7263,-1.15,1
33766,3025704485,4,466390000,1949,9,0.97,47.4987355,19.1979826,169.37,5.687047,274.4373,-1.29,1
33828,3025905367,4,466390200,1949,9,0.97,47.4987367,19.1979676,169.65,5.770615,278.9726,-1.36,1
33863,3026086786,4,466390400,1949,9,0.97,47.498738,19.1979525,169.91,5.717071,276.5283,-1.14,1
33925,3026288119,4,466390600,1949,9,0.97,47.498739,19.1979372,170.16,5.886696,275.4588,-1.27,1
33987,3026489689,4,466390800,1949,9,0.97,47.4987404,19.1979217,170.44,5.880553,279.4944,-1.19,1
34054,3026690745,4,466391000,1949,9,0.97,47.4987423,19.1979064,170.75,5.938771,281.9532,-1.41,1
34116,3026891489,4,466391200,1949,9,0.97,47.4987443,19.1978908,171.02,6.095941,279.6323,-1.41,1
34178,3027091366,4,466391400,1949,9,0.97,47.4987461,19.1978752,171.3,5.898856,279.9573,-1.37,1
34240,3027292278,4,466391600,1949,9,0.97,47.4987479,19.1978596,171.52,6.090164,280.4058,-1.35,1
34302,3027493369,4,466391800,1949,9,0.97,47.4987495,19.197844,171.79,5.884633,277.8134,-1.38,1
34393,3027714108,4,466392000,1949,9,0.97,47.4987507,19.1978286,172.07,5.856833,275.4867,-1.27,1
34430,3027894848,4,466392200,1949,9,0.97,47.4987519,19.1978133,172.35,5.828456,277.3933,-1.41,1
34492,3028095923,4,466392400,1949,9,0.97,47.4987529,19.1977982,172.53,5.80517,275.3374,-1.2,1
34555,3028297182,4,466392600,1949,9,0.97,47.4987537,19.197783,172.79,5.770026,273.3781,-1.37,1
34617,3028497583,4,466392800,1949,9,0.97,47.4987546,19.1977677,173.13,5.76453,276.2744,-1.54,1
34683,3028699548,4,466393000,1949,9,0.97,47.4987556,19.1977529,173.38,5.643066,276.2056,-1.6,1
34745,3028900536,4,466393200,1949,9,0.97,47.4987571,19.1977379,173.7,5.800388,280.1281,-1.44,1
34807,3029101371,4,466393400,1949,9,0.97,47.4987586,19.1977232,173.9,5.594944,278.7384,-1.37,1
34870,3029302241,4,466393600,1949,9,0.97,47.4987602,19.1977084,174.15,5.841104,279.5591,-1.39,1
34932,3029502272,4,466393800,1949,9,0.97,47.4987618,19.1976934,174.35,5.732687,279.1337,-1.25,1
34998,3029702943,4,466394000,1949,9,0.97,47.4987634,19.1976783,174.58,5.859463,280.025,-1.33,1
35060,3029903982,4,466394200,1949,9,0.97,47.4987654,19.1976629,174.91,5.964939,280.2361,-1.5,1
35122,3030104305,4,466394400,1949,9,0.97,47.4987675,19.1976475,175.2,5.95063,282.0275,-1.41,1
35184,3030304795,4,466394600,1949,9,0.97,47.4987696,19.1976321,175.45,6.032578,281.0864,-1.41,1
35246,3030505390,4,466394800,1949,9,0.97,47.4987718,19.1976168,175.73,5.776028,281.9908,-1.5,1
35310,3030705895,4,466395000,1949,9,0.97,47.4987739,19.1976015,176.03,5.955098,280.2532,-1.4,1
35372,3030906089,4,466395200,1949,9,0.97,47.4987755,19.197586,176.23,6.002482,278.9131,-1.36,1
35434,3031106729,4,466395400,1949,9,0.97,47.4987773,19.1975706,176.51,5.89733,280.9479,-1.58,1
35496,3031307750,4,466395600,1949,9,0.97,47.4987791,19.197555,176.86,5.996332,277.8599,-1.63,1
35558,3031508916,4,466395800,1949,9,0.97,47.4987803,19.1975396,177.11,5.826371,276.4053,-1.53,1
35622,3031689522,4,466396000,1949,9,0.97,47.4987815,19.1975242,177.42,5.83857,276.5894,-1.5,1
35686,3031910186,4,466396200,1949,9,0.97,47.4987827,19.197509,177.69,5.813923,277.8096,-1.6,1
35748,3032090568,4,466396400,1949,9,0.97,47.4987837,19.1974941,177.93,5.520045,274.8843,-1.39,1
35812,3032291911,4,466396600,1949,9,0.97,47.4987849,19.1974789,178.27,6.028806,278.0092,-1.56,1
35874,3032493625,4,466396800,1949,9,0.97,47.4987864,19.1974634,178.51,5.826328,279.2845,-1.37,1
35938,3032694728,4,466397000,1949,9,0.97,47.4987879,19.197448,178.73,5.913011,277.6779,-1.17,1
36002,3032895736,4,466397200,1949,9,0.97,47.4987893,19.1974329,178.97,5.552387,278.5971,-1.25,1
36064,3033096565,4,466397400,1949,9,0.97,47.4987908,19.1974182,179.18,5.699912,278.9831,-1.41,1
36127,3033297985,4,466397600,1949,9,0.97,47.4987921,19.1974031,179.43,5.804825,277.125,-1.43,1
36189,3033499001,4,466397800,1949,9,0.97,47.4987935,19.1973878,179.66,5.791244,278.34,-1.26,1
36255,3033699622,4,466398000,1949,9,0.97,47.498795,19.1973724,179.93,5.907427,278.665,-1.51,1
36317,3033900363,4,466398200,1949,9,0.97,47.4987965,19.1973569,180.24,5.876776,277.2339,-1.4,1
36379,3034101846,4,466398400,1949,9,0.97,47.4987978,19.1973413,180.52,5.944081,277.7348,-1.46,1
36442,3034303491,4,466398600,1949,9,0.97,47.4987992,19.1973256,180.74,6.023363,277.6324,-1.36,1
36506,3034504782,4,466398800,1949,9,0.97,47.4988006,19.1973099,181.01,5.891859,277.6075,-1.47,1
36570,3034706101,4,466399000,1949,9,0.97,47.498802,19.1972945,181.41,5.692776,276.1512,-1.46,1
36632,3034887862,4,466399200,1949,9,0.97,47.4988035,19.1972789,181.73,6.127193,279.6776,-1.6,1
36694,3035089153,4,466399400,1949,9,0.97,47.4988051,19.1972629,182.04,5.997708,277.9545,-1.51,1
36756,3035290893,4,466399600,1949,9,0.97,47.4988067,19.1972471,182.32,6.020706,278.7896,-1.61,1
36818,3035491660,4,466399800,1949,9,0.97,47.4988083,19.1972313,182.58,6.023794,278.9776,-1.58,1
36884,3035692842,4,466400000,1949,9,0.97,47.4988098,19.1972157,182.81,5.939696,278.1301,-1.48,1
36948,3035892865,4,466400200,1949,9,0.97,47.4988113,19.1972001,183.11,5.871848,278.3233,-1.38,1
37010,3036094177,4,466400400,1949,9,0.97,47.4988128,19.1971848,183.28,5.923462,279.033,-1.48,1
37072,3036294718,4,466400600,1949,9,0.97,47.4988145,19.1971695,183.55,5.737525,279.4295,-1.29,1
37134,3036495805,4,466400800,1949,9,0.97,47.4988164,19.1971543,183.72,5.965853,281.3099,-1.12,1
37199,3036696837,4,466401000,1949,9,0.97,47.4988183,19.1971387,183.98,5.936505,279.2085,-1.15,1
37263,3036898292,4,466401200,1949,9,0.97,47.4988202,19.1971232,184.22,5.967822,281.4041,-1.16,1
37325,3037100250,4,466401400,1949,9,0.97,47.4988221,19.1971079,184.49,5.773768,279.1687,-1.26,1
37387,3037301844,4,466401600,1949,9,0.97,47.4988237,19.1970926,184.75,5.915818,278.5547,-1.27,1
37449,3037502890,4,466401800,1949,9,0.97,47.4988253,19.197077,184.98,5.983586,278.3603,-1.35,1
37513,3037704515,4,466402000,1949,9,0.97,47.498827,19.1970613,185.3,6.012071,279.478,-1.4,1
37577,3037905472,4,466402200,1949,9,0.97,47.4988288,19.1970456,185.61,5.999416,278.7244,-1.43,1
37639,3038106124,4,466402400,1949,9,0.97,47.4988303,19.1970298,185.92,6.009534,277.3615,-1.42,1
37702,3038307174,4,466402600,1949,9,0.97,47.4988318,19.1970141,186.28,5.938291,278.0346,-1.47,1
37764,3038488349,4,466402800,1949,9,0.97,47.4988333,19.1969985,186.54,5.99348,278.3464,-1.51,1
37828,3038709642,4,466403000,1949,9,0.97,47.4988349,19.1969829,186.87,5.890713,278.8867,-1.6,1
37892,3038891255,4,466403200,1949,9,0.97,47.4988364,19.1969674,187.16,6.024616,278.3991,-1.41,1
37954,3039112022,4,466403400,1949,9,0.97,47.4988381,19.1969517,187.52,5.949605,279.3832,-1.6,1
38019,3039293501,4,466403600,1949,9,0.97,47.4988394,19.1969363,187.79,5.817018,275.5244,-1.5,1
38081,3039493780,4,466403800,1949,9,0.97,47.4988406,19.1969208,188.08,5.956148,277.137,-1.35,1
38145,3039713953,4,466404000,1949,9,0.97,47.498842,19.1969053,188.26,5.830969,276.796,-1.11,1
38207,3039895333,4,466404200,1949,9,0.97,47.498843,19.1968905,188.56,5.284411,274.2324,-1.11,1
38269,3040096419,4,466404400,1949,9,0.97,47.4988437,19.1968771,188.86,4.82421,274.3987,-1.1,1
38333,3040297232,4,466404600,1949,9,0.97,47.4988445,19.196865,189.05,4.270702,275.6439,-1.03,1
38395,3040499178,4,466404800,1949,9,0.97,47.4988451,19.1968544,189.25,3.701378,274.4937,-0.98,1
38459,3040699821,4,466405000,1949,9,0.97,47.4988456,19.1968456,189.44,2.910756,274.9271,-1,1
38523,3040900656,4,466405200,1949,9,0.97,47.4988464,19.1968387,189.56,2.292117,283.3693,-0.87,1
38585,3041101446,4,466405400,1949,9,0.97,47.4988472,19.1968336,189.71,1.671077,284.2026,-0.8,1
38647,3041302200,4,466405600,1949,9,0.97,47.4988479,19.1968298,189.87,1.25,286.2602,-0.44,1
38709,3041503250,4,466405800,1949,9,0.97,47.4988485,19.1968268,190.05,1.118258,285.0304,-0.47,1
38773,3041704265,4,466406000,1949,9,0.97,47.4988493,19.1968244,190.17,0.8778383,312.2298,-0.45,1
38837,3041904365,4,466406200,1949,9,0.97,47.49885,19.1968225,190.26,0.7404053,286.4769,-0.19,1
38899,3042105339,4,466406400,1949,9,0.97,47.4988502,19.196821,190.34,0.41,282.6804,-0.15,1
38961,3042306019,4,466406600,1949,9,0.97,47.4988502,19.19682,190.48,0.3026549,262.4054,-0.25,1
39023,3042506837,4,466406800,1949,9,0.97,47.49885,19.196819,190.5,0.4531004,247.9638,-0.11,1
39087,3042706868,4,466407000,1949,9,0.97,47.4988497,19.1968178,190.59,0.4248529,243.435,-0.26,1
39153,3042907806,4,466407200,1949,9,0.97,47.4988489,19.1968169,190.62,0.7689603,200.5561,0.06,1
39215,3043109070,4,466407400,1949,9,0.97,47.4988479,19.1968159,190.65,0.6020797,221.6335,-0.16,1
39276,3043291046,4,466407600,1949,9,0.97,47.4988472,19.196815,190.81,0.4280187,217.4053,-0.33,1
39340,3043511639,4,466407800,1949,9,0.97,47.4988467,19.1968142,190.81,0.422019,216.3268,-0.14,1
39406,3043712411,4,466408000,1949,9,0.97,47.4988463,19.1968141,190.73,0.2830194,147.9946,-0.02,1
39466,3043893879,4,466408200,1949,9,0.97,47.4988461,19.1968154,190.71,0.8500588,89.32596,0.05,1
39528,3044094796,4,466408400,1949,9,0.97,47.4988465,19.1968185,190.73,1.469728,80.60176,-0.01,1
39591,3044296232,4,466408600,1949,9,0.97,47.4988474,19.1968228,190.65,1.988819,68.46607,0.09999999,1
39653,3044496536,4,466408800,1949,9,0.97,47.4988489,19.1968288,190.66,2.710166,74.37404,0.17,1
39719,3044717036,4,466409000,1949,9,0.97,47.4988503,19.1968367,190.57,3.375515,77.85782,0.09,1
39779,3044897668,4,466409200,1949,9,0.97,47.498852,19.1968463,190.45,4.014387,75.13293,0.22,1
39843,3045097783,4,466409400,1949,9,0.97,47.498854,19.1968575,190.48,4.548164,76.91096,0.04,1
39905,3045299276,4,466409600,1949,9,0.97,47.4988556,19.1968699,190.43,4.91058,82.62895,0,1
39967,3045499863,4,466409800,1949,9,0.97,47.4988568,19.1968835,190.52,5.263174,83.56363,0,1
40033,3045720634,4,466410000,1949,9,0.97,47.4988574,19.1968975,190.49,5.25,90,0.01,1
40093,3045901251,4,466410200,1949,9,0.97,47.4988568,19.1969114,190.48,5.228432,97.80464,0.07,1
40157,3046102031,4,466410400,1949,9,0.97,47.4988549,19.196925,190.49,5.241679,105.9454,0.09,1
40219,3046302193,4,466410600,1949,9,0.97,47.4988521,19.1969379,190.5,4.995558,111.1199,-0.02,1
40281,3046501922,4,466410800,1949,9,0.97,47.4988485,19.19695,190.47,5.005887,117.9984,0.04,1
40346,3046703181,4,466411000,1949,9,0.97,47.4988439,19.1969614,190.48,5.039623,124.163,-0.01,1
40410,3046904422,4,466411200,1949,9,0.97,47.4988385,19.1969724,190.45,5.264618,128.6768,0.12,1
40472,3047105810,4,466411400,1949,9,0.97,47.4988327,19.1969833,190.41,5.217825,128.3854,0.27,1
40509,3047287278,4,466411600,1949,9,0.97,47.498827,19.1969938,190.36,5.134744,130.5771,0.08,1
40571,3047488474,4,466411800,1949,9,0.97,47.4988215,19.1970044,190.38,5.070158,126.4179,0.09,1
40635,3047690219,4,466412000,1949,9,0.97,47.4988165,19.1970156,190.33,5.162451,122.5818,0.15,1
40699,3047891290,4,466412200,1949,9,0.97,47.4988121,19.1970274,190.26,5.134871,117.613,0.07,1
